[{"name":"美國(US)","id":"US","value":2104.6195,"die":"357,258","longitude":-77.02,"latitude":39.91},{"name":"印度(IN)","id":"IN","value":1037.4932,"die":"150,114","longitude":77.13,"latitude":28.37},{"name":"巴西(BR)","id":"BR","value":781.04,"die":"197,732","longitude":-47.55,"latitude":-15.47},{"name":"俄羅斯(RU)","id":"RU","value":325.0713,"die":"58,706","longitude":37.35,"latitude":55.45},{"name":"英國(GB)","id":"GB","value":278.2709,"die":"76,428","longitude":-0.05,"latitude":51.36},{"name":"法國(FR)","id":"FR","value":273.7884,"die":"66,417","longitude":2.2,"latitude":48.5},{"name":"土耳其(TR)","id":"TR","value":227.0101,"die":"21,879","longitude":32.54,"latitude":39.57},{"name":"義大利(IT)","id":"IT","value":218.1619,"die":"76,329","longitude":12.29,"latitude":41.54},{"name":"西班牙(ES)","id":"ES","value":198.2544,"die":"51,430","longitude":-3.45,"latitude":40.25},{"name":"德國(DE)","id":"DE","value":181.4565,"die":"36,757","longitude":13.25,"latitude":52.3},{"name":"哥倫比亞(CO)","id":"CO","value":170.2966,"die":"44,428","longitude":-74,"latitude":4.34},{"name":"阿根廷(AR)","id":"AR","value":166.273,"die":"43,785","longitude":-60,"latitude":-36.3},{"name":"墨西哥(MX)","id":"MX","value":146.649,"die":"128,822","longitude":-99.1,"latitude":19.2},{"name":"波蘭(PL)","id":"PL","value":133.0543,"die":"29,502","longitude":21,"latitude":52.13},{"name":"伊朗(IR)","id":"IR","value":125.562,"die":"55,748","longitude":51.3,"latitude":35.44},{"name":"南非(ZA)","id":"ZA","value":112.7759,"die":"30,524","longitude":-31.16,"latitude":24.16},{"name":"烏克蘭(UA)","id":"UA","value":111.7256,"die":"19,929","longitude":30.28,"latitude":50.3},{"name":"秘魯(PE)","id":"PE","value":101.9475,"die":"37,830","longitude":-77,"latitude":-12},{"name":"荷蘭(NL)","id":"NL","value":84.5822,"die":"11,922","longitude":4.54,"latitude":52.23},{"name":"印尼(ID)","id":"ID","value":77.9548,"die":"23,109","longitude":106.49,"latitude":-6.09},{"name":"捷克(CS)","id":"CS","value":75.9635,"die":"12,257","longitude":50.14,"latitude":14.42},{"name":"比利時(BE)","id":"BE","value":65.2735,"die":"19,827","longitude":4.21,"latitude":50.51},{"name":"羅馬尼亞(RO)","id":"RO","value":64.8288,"die":"16,178","longitude":26.1,"latitude":44.27},{"name":"加拿大(CA)","id":"CA","value":62.3384,"die":"16,253","longitude":-75.42,"latitude":45.27},{"name":"智利(CL)","id":"CL","value":62.3101,"die":"16,788","longitude":-70.4,"latitude":-33.24},{"name":"伊拉克(IQ)","id":"IQ","value":59.9126,"die":"12,856","longitude":44.3,"latitude":33.2},{"name":"孟加拉(BD)","id":"BD","value":51.792,"die":"7,670","longitude":90.26,"latitude":23.43},{"name":"巴基斯坦(PK)","id":"PK","value":49.2594,"die":"10,461","longitude":73.1,"latitude":33.4},{"name":"菲律賓(PH)","id":"PH","value":47.9693,"die":"9,321","longitude":121.03,"latitude":14.4},{"name":"瑞典(SE)","id":"SE","value":46.9748,"die":"8,985","longitude":18.03,"latitude":59.2},{"name":"瑞士(CH)","id":"CH","value":46.5981,"die":"8,018","longitude":7.28,"latitude":46.57},{"name":"以色列(IL)","id":"IL","value":45.6139,"die":"3,496","longitude":35.12,"latitude":31.47},{"name":"摩洛哥(MA)","id":"MA","value":44.5439,"die":"7,581","longitude":31.9,"latitude":-6.26},{"name":"葡萄牙(PT)","id":"PT","value":43.6579,"die":"7,286","longitude":-9.1,"latitude":38.42},{"name":"奧地利(AT)","id":"AT","value":36.9721,"die":"6,457","longitude":16.22,"latitude":48.12},{"name":"沙烏地阿拉伯(SA)","id":"SA","value":36.3259,"die":"6,265","longitude":46.42,"latitude":24.41},{"name":"匈牙利(HU)","id":"HU","value":32.9721,"die":"10,080","longitude":19.05,"latitude":47.29},{"name":"約旦(JO)","id":"JO","value":30.1303,"die":"3,940","longitude":35.52,"latitude":31.57},{"name":"尼泊爾(NP)","id":"NP","value":26.2784,"die":"1,893","longitude":85.2,"latitude":27.45},{"name":"巴拿馬(PA)","id":"PA","value":25.977,"die":"4,238","longitude":-79.25,"latitude":9},{"name":"日本(JP)","id":"JP","value":25.3571,"die":"3,548","longitude":36.44,"latitude":138.48},{"name":"亞塞拜然(AZ)","id":"AZ","value":22.1401,"die":"2,792","longitude":49.56,"latitude":40.29},{"name":"厄瓜多(EC)","id":"EC","value":21.6083,"die":"14,103","longitude":-1.38,"latitude":-78.33},{"name":"保加利亞(BG)","id":"BG","value":20.539,"die":"7,902","longitude":23.2,"latitude":42.45},{"name":"哈薩克(KZ)","id":"KZ","value":20.5064,"die":"2,775","longitude":71.3,"latitude":51.1},{"name":"白俄羅斯(BY)","id":"BY","value":20.3104,"die":"1,471","longitude":27.3,"latitude":53.52},{"name":"黎巴嫩(LB)","id":"LB","value":19.5759,"die":"1,529","longitude":35.31,"latitude":33.53},{"name":"斯洛伐克(SK)","id":"SK","value":19.1088,"die":"2,603","longitude":17.07,"latitude":48.1},{"name":"多明尼加共和國(DO)","id":"DO","value":17.5849,"die":"2,419","longitude":-69.59,"latitude":18.3},{"name":"哥斯大黎加(CR)","id":"CR","value":17.3591,"die":"2,248","longitude":-84.02,"latitude":9.55},{"name":"丹麥(DK)","id":"DK","value":17.3433,"die":"1,420","longitude":12.34,"latitude":55.41},{"name":"玻利維亞(BO)","id":"BO","value":16.5268,"die":"9,241","longitude":-68.1,"latitude":-16.2},{"name":"亞美尼亞(AM)","id":"AM","value":16.0544,"die":"2,878","longitude":44.31,"latitude":40.1},{"name":"科威特(KW)","id":"KW","value":15.2027,"die":"938","longitude":48,"latitude":29.3},{"name":"立陶宛(LT)","id":"LT","value":14.9497,"die":"1,996","longitude":25.19,"latitude":54.38},{"name":"突尼西亞(TN)","id":"TN","value":14.7061,"die":"4,934","longitude":34.13,"latitude":9.43},{"name":"卡達(QA)","id":"QA","value":14.4852,"die":"245","longitude":51.35,"latitude":25.15},{"name":"埃及(EG)","id":"EG","value":14.4583,"die":"7,918","longitude":31.14,"latitude":30.01},{"name":"巴勒斯坦(BL)","id":"BL","value":14.3169,"die":"1,505"},{"name":"希臘(GR)","id":"GR","value":14.1453,"die":"5,051","longitude":23.46,"latitude":37.58},{"name":"瓜地馬拉(GT)","id":"GT","value":13.9419,"die":"4,859","longitude":-90.22,"latitude":14.4},{"name":"阿曼(OM)","id":"OM","value":12.9774,"die":"1,502","longitude":58.36,"latitude":23.37},{"name":"斯洛維尼亞(SI)","id":"SI","value":12.837,"die":"2,868","longitude":14.33,"latitude":46.04},{"name":"緬甸(MM)","id":"MM","value":12.7584,"die":"2,766","longitude":96.2,"latitude":16.45},{"name":"衣索比亞(ET)","id":"ET","value":12.6241,"die":"1,963","longitude":38.42,"latitude":9.02},{"name":"宏都拉斯(HN)","id":"HN","value":12.3822,"die":"3,186","longitude":-87.14,"latitude":14.05},{"name":"馬來西亞(MY)","id":"MY","value":12.2845,"die":"509","longitude":101.41,"latitude":3.09},{"name":"委內瑞拉(VE)","id":"VE","value":11.4662,"die":"1,042","longitude":-66.55,"latitude":10.3},{"name":"愛爾蘭(IE)","id":"IE","value":11.3322,"die":"2,282","longitude":-6.15,"latitude":53.21},{"name":"巴拉圭(PY)","id":"PY","value":11.0796,"die":"2,321","longitude":-57.3,"latitude":-25.1},{"name":"利比亞(LY)","id":"LY","value":10.2456,"die":"1,536","longitude":26.9,"latitude":17.21},{"name":"阿爾及利亞(DZ)","id":"DZ","value":10.0873,"die":"2,782","longitude":3.08,"latitude":36.42},{"name":"肯亞(KE)","id":"KE","value":9.7127,"die":"1,690","longitude":36.48,"latitude":-1.17},{"name":"巴林(BH)","id":"BH","value":9.3995,"die":"352","longitude":50.3,"latitude":26.1},{"name":"奈及利亞(NG)","id":"NG","value":9.2705,"die":"1,319","longitude":7.32,"latitude":9.05},{"name":"吉爾吉斯(KG)","id":"KG","value":8.1512,"die":"1,360","longitude":41.41,"latitude":74.58},{"name":"烏茲別克(UZ)","id":"UZ","value":7.7295,"die":"614","longitude":41.97,"latitude":63.64},{"name":"南韓(KR)","id":"KR","value":6.5818,"die":"1,027","longitude":36.6,"latitude":127.8},{"name":"阿爾巴尼亞(AL)","id":"AL","value":6.0283,"die":"1,210","longitude":19.49,"latitude":41.18},{"name":"新加坡(SG)","id":"SG","value":5.8749,"die":"29","longitude":1.36,"latitude":103.87},{"name":"迦納(GH)","id":"GH","value":5.5168,"die":"335","longitude":-0.06,"latitude":5.35},{"name":"阿富汗(AF)","id":"AF","value":5.3105,"die":"2,244","longitude":69.11,"latitude":34.28},{"name":"挪威(NO)","id":"NO","value":5.218,"die":"452","longitude":10.45,"latitude":59.55},{"name":"薩爾瓦多(SV)","id":"SV","value":4.7355,"die":"1,373","longitude":-89.1,"latitude":13.4},{"name":"盧森堡(LU)","id":"LU","value":4.7149,"die":"514","longitude":6.09,"latitude":49.37},{"name":"斯里蘭卡(LK)","id":"LK","value":4.5726,"die":"217","longitude":7.63,"latitude":80.78},{"name":"拉脫維亞(LV)","id":"LV","value":4.3942,"die":"722","longitude":24.08,"latitude":56.53},{"name":"芬蘭(FI)","id":"FI","value":3.7218,"die":"576","longitude":25.03,"latitude":60.15},{"name":"烏干達(UG)","id":"UG","value":3.6407,"die":"290","longitude":32.3,"latitude":0.2},{"name":"愛沙尼亞(EE)","id":"EE","value":2.995,"die":"258","longitude":24.48,"latitude":59.22},{"name":"喀麥隆(CM)","id":"CM","value":2.6848,"die":"448","longitude":11.35,"latitude":3.5},{"name":"納米比亞(NA)","id":"NA","value":2.5887,"die":"222","longitude":17.04,"latitude":-22.35},{"name":"賽普勒斯(CY)","id":"CY","value":2.5208,"die":"134","longitude":33.25,"latitude":35.1},{"name":"尚比亞(ZM)","id":"ZM","value":2.2645,"die":"412","longitude":28.16,"latitude":-15.28},{"name":"烏拉圭(UY)","id":"UY","value":2.2104,"die":"217","longitude":-56.11,"latitude":-34.5},{"name":"塞內加爾(SN)","id":"SN","value":1.9964,"die":"428","longitude":-17.29,"latitude":14.34},{"name":"莫三比克(MZ)","id":"MZ","value":1.9542,"die":"171","longitude":32.32,"latitude":-25.58},{"name":"剛果民主共和國(CG)","id":"CG","value":1.8248,"die":"599","longitude":-2.92,"latitude":23.78},{"name":"馬達加斯加(MG)","id":"MG","value":1.7767,"die":"262","longitude":47.31,"latitude":-18.55},{"name":"安哥拉(AO)","id":"AO","value":1.7756,"die":"410","longitude":13.15,"latitude":-8.5},{"name":"辛巴威(ZW)","id":"ZW","value":1.7194,"die":"418","longitude":31.02,"latitude":-17.43},{"name":"波札那(BW)","id":"BW","value":1.544,"die":"45","longitude":25.57,"latitude":-24.45},{"name":"馬爾地夫(MV)","id":"MV","value":1.393,"die":"48","longitude":73.28,"latitude":4},{"name":"幾內亞(GN)","id":"GN","value":1.3845,"die":"81","longitude":-13.49,"latitude":9.29},{"name":"馬爾他(MT)","id":"MT","value":1.3388,"die":"226","longitude":14.31,"latitude":35.54},{"name":"牙買加(JM)","id":"JM","value":1.3246,"die":"305","longitude":-76.5,"latitude":18},{"name":"古巴(CU)","id":"CU","value":1.2964,"die":"147","longitude":-82.22,"latitude":23.08},{"name":"敘利亞(SY)","id":"SY","value":1.189,"die":"741","longitude":35.01,"latitude":38.38},{"name":"貝里斯(BZ)","id":"BZ","value":1.1018,"die":"258","longitude":-88.3,"latitude":17.18},{"name":"史瓦帝尼(SZ)","id":"SZ","value":1.0338,"die":"252","longitude":-26.56,"latitude":31.46},{"name":"海地(HT)","id":"HT","value":1.0127,"die":"236","longitude":-72.2,"latitude":18.4},{"name":"泰國(TH)","id":"TH","value":0.9331,"die":"66","longitude":100.35,"latitude":13.45},{"name":"安道爾(AD)","id":"AD","value":0.8308,"die":"84","longitude":1.32,"latitude":42.31},{"name":"巴哈馬(BS)","id":"BS","value":0.7928,"die":"175","longitude":-77.2,"latitude":25.05},{"name":"布吉納法索(BF)","id":"BF","value":0.7342,"die":"86","longitude":-1.3,"latitude":12.15},{"name":"千里達及托巴哥(TT)","id":"TT","value":0.7186,"die":"127","longitude":10.73,"latitude":-61.01},{"name":"馬拉威(MW)","id":"MW","value":0.711,"die":"199","longitude":33.48,"latitude":-14},{"name":"蘇利南(SR)","id":"SR","value":0.6586,"die":"125","longitude":-55.1,"latitude":5.5},{"name":"尼加拉瓜(NI)","id":"NI","value":0.6097,"die":"166","longitude":-86.2,"latitude":12.06},{"name":"吉布地(DJ)","id":"DJ","value":0.5854,"die":"61","longitude":42.2,"latitude":11.08},{"name":"冰島(IS)","id":"IS","value":0.5811,"die":"29","longitude":-21.57,"latitude":64.1},{"name":"中非共和國(CF)","id":"CF","value":0.4963,"die":"63","longitude":18.35,"latitude":4.23},{"name":"索馬利亞(SO)","id":"SO","value":0.4714,"die":"130","longitude":2.86,"latitude":45.1},{"name":"甘比亞(GM)","id":"GM","value":0.3812,"die":"125","longitude":-16.4,"latitude":13.28},{"name":"多哥(TG)","id":"TG","value":0.377,"die":"69","longitude":1.2,"latitude":6.09},{"name":"南蘇丹(SD)","id":"SD","value":0.3589,"die":"63","longitude":7.41,"latitude":29.93},{"name":"尼日(NE)","id":"NE","value":0.35,"die":"110","longitude":17.5,"latitude":9.43},{"name":"貝南(BJ)","id":"BJ","value":0.3304,"die":"44","longitude":2.42,"latitude":6.23},{"name":"獅子山(SL)","id":"SL","value":0.2724,"die":"76","longitude":-13.17,"latitude":8.3},{"name":"聖馬利諾(SM)","id":"SM","value":0.2549,"die":"62","longitude":12.3,"latitude":43.55},{"name":"查德(TD)","id":"TD","value":0.2289,"die":"105","longitude":14.59,"latitude":12.1},{"name":"紐西蘭(NZ)","id":"NZ","value":0.2186,"die":"25","longitude":174.46,"latitude":-41.19},{"name":"葉門(YE)","id":"YE","value":0.2101,"die":"610","longitude":15.88,"latitude":47.67},{"name":"賴比瑞亞(LR)","id":"LR","value":0.1779,"die":"83","longitude":-10.47,"latitude":6.18},{"name":"越南(VN)","id":"VN","value":0.1504,"die":"35","longitude":105.55,"latitude":21.05},{"name":"蒙古(MN)","id":"MN","value":0.1308,"die":"1","longitude":46.87,"latitude":102.55},{"name":"聖多美普林西比(ST)","id":"ST","value":0.1024,"die":"17","longitude":0.24,"latitude":6.62},{"name":"摩納哥(MC)","id":"MC","value":0.0947,"die":"3","longitude":43.73,"latitude":7.42},{"name":"台灣(TW)","id":"TW","value":0.0819,"die":"7","longitude":121.3,"latitude":25.03},{"name":"巴布亞紐幾內亞(PG)","id":"PG","value":0.0799,"die":"9","longitude":147.08,"latitude":-9.24},{"name":"巴貝多(BB)","id":"BB","value":0.0643,"die":"7","longitude":-59.3,"latitude":13.05},{"name":"模里西斯(MU)","id":"MU","value":0.0531,"die":"10","longitude":-20.24,"latitude":57.37},{"name":"坦尚尼亞(TZ)","id":"TZ","value":0.0509,"die":"21","longitude":35.45,"latitude":-6.08},{"name":"柬埔寨(KH)","id":"KH","value":0.0383,"die":"0","longitude":104.55,"latitude":11.33},{"name":"聖露西亞(LC)","id":"LC","value":0.038,"die":"5","longitude":-60.58,"latitude":14.02},{"name":"塞席爾(SC)","id":"SC","value":0.0313,"die":"0","longitude":-4.63,"latitude":55.55},{"name":"汶萊(BN)","id":"BN","value":0.0172,"die":"3","longitude":115,"latitude":4.52},{"name":"安提瓜和巴布達(AG)","id":"AG","value":0.016,"die":"5"},{"name":"聖文森及格瑞那丁(VC)","id":"VC","value":0.0133,"die":"0","longitude":13.25,"latitude":-61.2},{"name":"格瑞那達(GD)","id":"GD","value":0.0127,"die":"0","longitude":12.11,"latitude":-61.62},{"name":"斐濟(FJ)","id":"FJ","value":0.0053,"die":"2","longitude":178.3,"latitude":-18.06}]